{"version": 0.6, "generator": "Overpass API 0.7.62.11 87bfad18", "osm3s": {"timestamp_osm_base": "2026-05-02T01:17:24Z", "timestamp_areas_base": "2026-05-01T15:22:47Z", "copyright": "The data included in this document is from www.openstreetmap.org. The data is made available under ODbL."}, "elements": [{"type": "relation", "id": 4567524, "center": {"lat": 35.0765056, "lon": 136.8520595}, "tags": {"admin_level": "8", "boundary": "administrative", "name": "港区", "name:en": "Minato Ward", "name:ja": "港区", "name:ja-Hira": "みなとく", "name:ja-Latn": "Minato-ku", "name:ko": "미나토구", "source": "KSJ2/N03", "type": "boundary", "wikidata": "Q1207982"}}, {"type": "relation", "id": 4567526, "center": {"lat": 35.225148, "lon": 136.993344}, "tags": {"admin_level": "8", "boundary": "administrative", "name": "守山区", "name:en": "Moriyama Ward", "name:ja": "守山区", "name:ja-Hira": "もりやまく", "name:ja-Latn": "Moriyama-ku", "name:ko": "모리야마구", "source": "KSJ2/N03", "type": "boundary", "wikidata": "Q1155291", "wikimedia_commons": "Category:Moriyama-ku, Nagoya", "wikipedia": "ja:守山区"}}, {"type": "relation", "id": 4567527, "center": {"lat": 35.147517, "lon": 136.9415}, "tags": {"admin_level": "8", "boundary": "administrative", "name": "昭和区", "name:en": "Showa Ward", "name:ja": "昭和区", "name:ja-Hira": "しょうわく", "name:ja-Latn": "Shōwa-ku", "name:ko": "쇼와구", "source": "KSJ2/N03", "type": "boundary", "wikidata": "Q1155273"}}, {"type": "relation", "id": 4567572, "center": {"lat": 35.1249045, "lon": 136.9368145}, "tags": {"admin_level": "8", "boundary": "administrative", "name": "瑞穂区", "name:en": "Mizuho Ward", "name:ja": "瑞穂区", "name:ja-Hira": "みずほく", "name:ja-Latn": "Mizuho-ku", "name:ko": "미즈호구", "source": "KSJ2/N03", "type": "boundary", "wikidata": "Q1207957"}}, {"type": "relation", "id": 4567577, "center": {"lat": 35.202954, "lon": 136.8816125}, "tags": {"admin_level": "8", "boundary": "administrative", "name": "西区", "name:en": "Nishi Ward", "name:ja": "西区", "name:ja-Hira": "にしく", "name:ja-Latn": "Nishi-ku", "name:ko": "니시구", "source": "KSJ2/N03", "type": "boundary", "wikidata": "Q1207973"}}, {"type": "relation", "id": 4567579, "center": {"lat": 35.1704686, "lon": 136.9564455}, "tags": {"admin_level": "8", "boundary": "administrative", "name": "千種区", "name:en": "Chikusa Ward", "name:fr": "Arrondissement de Chikusa", "name:ja": "千種区", "name:ja-Hira": "ちくさく", "name:ja-Latn": "Chikusa-ku", "name:ko": "지쿠사구", "source": "KSJ2/N03", "type": "boundary", "wikidata": "Q1207951", "wikimedia_commons": "Category:Chikusa-ku, Nagoya", "wikipedia": "ja:千種区"}}, {"type": "relation", "id": 4567580, "center": {"lat": 35.1649025, "lon": 136.9111755}, "tags": {"admin_level": "8", "boundary": "administrative", "name": "中区", "name:en": "Naka Ward", "name:es": "Barrio Naka", "name:ja": "中区", "name:ja-Hira": "なかく", "name:ja-Latn": "Naka-ku", "name:ko": "나카구", "source": "KSJ2/N03", "type": "boundary", "wikidata": "Q1207921"}}, {"type": "relation", "id": 4567592, "center": {"lat": 35.138937, "lon": 136.8479945}, "tags": {"admin_level": "8", "boundary": "administrative", "name": "中川区", "name:en": "Nakagawa Ward", "name:ja": "中川区", "name:ja-Hira": "なかがわく", "name:ja-Latn": "Nakagawa-ku", "name:ko": "나카가와구", "source": "KSJ2/N03", "type": "boundary", "wikidata": "Q1155226", "wikipedia": "ja:中川区"}}, {"type": "relation", "id": 4567594, "center": {"lat": 35.168294, "lon": 136.861026}, "tags": {"admin_level": "8", "boundary": "administrative", "name": "中村区", "name:en": "Nakamura Ward", "name:ja": "中村区", "name:ja-Hira": "なかむらく", "name:ja-Latn": "Nakamura-ku", "name:ko": "나카무라구", "source": "KSJ2/N03", "type": "boundary", "wikidata": "Q780521"}}, {"type": "relation", "id": 4567614, "center": {"lat": 35.1260825, "lon": 136.9840805}, "tags": {"admin_level": "8", "boundary": "administrative", "name": "天白区", "name:en": "Tenpaku Ward", "name:ja": "天白区", "name:ja-Hira": "てんぱくく", "name:ja-Latn": "Tenpaku-ku", "name:ko": "덴파쿠구", "source": "KSJ2/N03", "type": "boundary", "wikidata": "Q1155245"}}, {"type": "relation", "id": 4567617, "center": {"lat": 35.1844005, "lon": 136.936834}, "tags": {"admin_level": "8", "boundary": "administrative", "name": "東区", "name:en": "Higashi Ward", "name:ja": "東区", "name:ja-Hira": "ひがしく", "name:ja-Latn": "Higashi-ku", "name:ko": "히가시구", "source": "KSJ2/N03", "type": "boundary", "wikidata": "Q578824"}}, {"type": "relation", "id": 4567626, "center": {"lat": 35.093298, "lon": 136.9250565}, "tags": {"admin_level": "8", "boundary": "administrative", "name": "南区", "name:en": "Minami Ward", "name:ja": "南区", "name:ja-Hira": "みなみく", "name:ja-Latn": "Minami-ku", "name:ko": "미나미구", "source": "KSJ2/N03", "type": "boundary", "wikidata": "Q1155286"}}, {"type": "relation", "id": 4567628, "center": {"lat": 35.1279325, "lon": 136.8999965}, "tags": {"admin_level": "8", "boundary": "administrative", "name": "熱田区", "name:en": "Atsuta Ward", "name:ja": "熱田区", "name:ja-Hira": "あつたく", "name:ja-Latn": "Atsuta-ku", "name:ko": "아쓰타구", "source": "KSJ2/N03", "type": "boundary", "wikidata": "Q1355625"}}, {"type": "relation", "id": 4567635, "center": {"lat": 35.2145075, "lon": 136.9174725}, "tags": {"admin_level": "8", "boundary": "administrative", "name": "北区", "name:en": "Kita Ward", "name:ja": "北区", "name:ja-Hira": "きたく", "name:ja-Latn": "Kita-ku", "name:ko": "기타구", "source": "KSJ2/N03", "type": "boundary", "wikidata": "Q1207964"}}, {"type": "relation", "id": 4567636, "center": {"lat": 35.166948, "lon": 137.002825}, "tags": {"admin_level": "8", "boundary": "administrative", "name": "名東区", "name:en": "Meito Ward", "name:es": "Barrio Meito", "name:ja": "名東区", "name:ja-Hira": "めいとうく", "name:ja-Latn": "Meito-ku", "name:ko": "메이토구", "source": "KSJ2/N03", "type": "boundary", "wikidata": "Q1155280"}}, {"type": "relation", "id": 4567639, "center": {"lat": 35.0744533, "lon": 136.9646662}, "tags": {"admin_level": "8", "boundary": "administrative", "name": "緑区", "name:en": "Midori Ward", "name:ja": "緑区", "name:ja-Hira": "みどりく", "name:ja-Latn": "Midori-ku", "name:ko": "미도리구", "source": "KSJ2/N03", "type": "boundary", "wikidata": "Q1155209"}}]}