{"version": 0.6, "generator": "Overpass API 0.7.62.11 87bfad18", "osm3s": {"timestamp_osm_base": "2026-05-02T01:16:18Z", "timestamp_areas_base": "2026-05-01T15:22:47Z", "copyright": "The data included in this document is from www.openstreetmap.org. The data is made available under ODbL."}, "elements": [{"type": "relation", "id": 4159305, "center": {"lat": 38.345526, "lon": 140.7314245}, "tags": {"admin_level": "8", "boundary": "administrative", "name": "青葉区", "name:en": "Aoba Ward", "name:fr": "Arrondissement d'Aoba", "name:ja": "青葉区", "name:ja-Hira": "あおばく", "name:ja-Latn": "Aoba-ku", "type": "boundary", "wikidata": "Q1042308", "wikimedia_commons": "Category:Aoba-ku, Sendai", "wikipedia": "ja:青葉区 (仙台市)"}}, {"type": "relation", "id": 4159306, "center": {"lat": 38.360673, "lon": 140.8098621}, "tags": {"admin_level": "8", "boundary": "administrative", "name": "泉区", "name:en": "Izumi Ward", "name:ja": "泉区", "name:ja-Hira": "いずみく", "name:ja-Latn": "Izumi-ku", "type": "boundary", "wikidata": "Q1043338", "wikipedia": "ja:泉区 (仙台市)"}}, {"type": "relation", "id": 4159314, "center": {"lat": 38.1958303, "lon": 141.0713305}, "tags": {"admin_level": "8", "boundary": "administrative", "name": "宮城野区", "name:en": "Miyagino Ward", "name:ja": "宮城野区", "name:ja-Hira": "みやぎのく", "name:ja-Latn": "Miyagino-ku", "type": "boundary", "wikidata": "Q1043355", "wikipedia": "ja:宮城野区"}}, {"type": "relation", "id": 4168599, "center": {"lat": 38.2760675, "lon": 140.702381}, "tags": {"admin_level": "8", "boundary": "administrative", "name": "太白区", "name:en": "Taihaku Ward", "name:fr": "Arrondissement de Taihaku", "name:ja": "太白区", "name:ja-Hira": "たいはくく", "name:ja-Latn": "Taihaku-ku", "type": "boundary", "wikidata": "Q1043331", "wikimedia_commons": "Category:Taihaku-ku, Sendai", "wikipedia": "ja:太白区"}}, {"type": "relation", "id": 4168634, "center": {"lat": 38.2112514, "lon": 140.9873983}, "tags": {"admin_level": "8", "boundary": "administrative", "name": "若林区", "name:en": "Wakabayashi Ward", "name:ja": "若林区", "name:ja-Hira": "わかばやしく", "name:ja-Latn": "Wakabayashi-ku", "type": "boundary", "wikidata": "Q1131743", "wikipedia": "ja:若林区"}}]}